City,Temperature,Humidity,Cloudiness,Wind Speed,Latitude,Longitude
abalak,73.42,32.5,0.0,6.53,17.54591890174099,4.922854117126008
abha,63.605000000000004,20.5,0.0,3.96,19.491949243666255,43.87477364972281
abnub,55.35,48.5,0.0,7.3149999999999995,27.406980291633573,29.68373171756076
abu dhabi,67.875,31.5,0.0,6.7,23.579011476720382,52.84458598343565
acapulco,79.89,100.0,56.0,6.745,2.983608275639071,-106.19271596988378
acari,74.895,100.0,88.0,12.91,-17.599897885402342,-75.4807376074751
acton,21.96,65.5,32.0,5.5,42.49704600096803,-71.52325190194084
adrar,63.394999999999996,31.5,0.0,6.7,26.496161746137517,-0.29937233919855544
adwa,65.03,34.0,0.0,3.5,14.329213630750658,38.80054551245212
aflu,55.465,75.0,0.0,4.465,31.362304921262208,1.1902396689980037
aginskoye,21.955,70.0,32.0,3.5,55.321027678364686,94.64326254015293
aguimes,63.21,93.5,0.0,16.04,24.98137224031548,-15.186427247418294
airai,80.225,100.0,32.0,17.479999999999997,13.810997350917319,143.97928193179212
aitape,82.86500000000001,100.0,64.0,7.695,-0.4782883174232069,143.34437638000236
aklavik,-5.225,65.0,32.0,3.38,68.08254372886168,-138.3165387207581
alamogordo,57.035,31.0,0.0,8.38,32.436346517986266,-105.96637127742665
albany,-48.71,0.0,16.0,12.45,-88.47969608641425,110.48483936343519
alghero,57.834999999999994,94.0,8.0,15.02,40.10407938758979,7.591627293059759
almaznyy,15.254999999999999,71.5,56.0,6.51,63.5987824328098,116.07965658062272
alofi,77.605,100.0,48.0,19.205,-23.127374374081043,-171.14626826187902
along,22.47,82.0,84.0,1.205,29.788024580231706,94.50073623317866
alugan,79.045,100.0,22.0,12.059999999999999,15.894855568969959,130.2286100238261
ambalavao,66.36,92.5,52.0,3.105,-21.630953032762363,46.88539166880284
ambilobe,82.37,100.0,46.0,8.42,-10.507368469299735,49.809876936065535
amderma,0.185,88.0,56.0,23.630000000000003,79.73803226913913,59.46998737807496
ancud,64.005,100.0,64.0,14.985,-39.45486166356082,-100.09249053330842
andenes,28.5,100.0,56.0,21.674999999999997,72.37932377050484,14.751071567253717
ang thong,87.31,55.0,0.0,8.399999999999999,14.59598943699713,100.46946418027983
ankang,41.235,89.5,84.0,2.29,32.26575747394297,108.625508248073
antofagasta,69.615,100.0,0.0,16.085,-24.267961142405568,-75.71745450363667
aquiraz,80.505,100.0,72.0,12.77,-0.14913254013660548,-35.692670854426154
aracati,79.865,100.0,56.0,7.2,-4.014608728368145,-37.22983289358939
ardistan,48.035,38.5,0.0,4.38,33.736152148281064,52.90093166373177
arica,39.185,69.0,8.0,2.325,-19.025597725389318,-68.76894887979537
arlit,68.67,23.0,0.0,12.379999999999999,20.116524416439006,5.94120152572691
armacao dos buzios,79.84,93.0,30.0,11.675,-22.735248739219045,-41.79702048135778
arman,13.005,94.5,16.0,11.6,57.06681431258781,148.08083992793036
arraial do cabo,60.985,97.0,76.0,20.47,-42.27608497066854,-29.194302130101875
arroio grande,74.195,94.5,68.0,13.555,-32.35259733529132,-52.61933021194163
arroyo,77.905,100.0,66.0,18.84,16.227851075225885,-65.65733095476384
artyk,-27.59,48.0,0.0,2.9850000000000003,62.060230619640805,144.6069283157325
arvika,27.285,78.0,80.0,3.49,60.38941587244028,12.990017909835416
astana,23.485,91.0,72.0,14.92,50.52210895089726,70.78087022567684
at-bashi,3.71,66.0,20.0,2.6500000000000004,40.661863454944324,76.3086612094732
atambua,80.54499999999999,100.0,68.0,3.005,-8.444926950322596,125.5231577167105
attawapiskat,-1.77,89.0,52.0,11.094999999999999,58.933281413173006,-87.41635459177208
atuona,79.155,100.0,60.0,7.015000000000001,-0.06581116666997389,-125.53952286408509
avarua,73.53,100.0,64.0,19.025,-27.36024374622197,-163.58679638001382
avera,77.965,100.0,80.0,13.96,-25.96362901225757,-153.03934919054043
awbari,56.615,66.0,0.0,5.41,26.82977987948081,12.356644916731312
aykhal,12.629999999999999,72.5,66.0,6.220000000000001,65.13224288558615,111.1604806934485
babol,48.485,93.5,8.0,4.005,36.318358468590404,52.841396961031364
bacolod,79.705,100.0,44.0,12.615,9.436227551522634,129.07044793407135
baft,34.785,52.0,0.0,2.9400000000000004,28.988154601363107,56.29120953204074
baisha,48.835,90.5,88.0,3.77,29.16663204910236,115.07004453921655
bako,71.87,60.5,66.0,1.92,6.233951982882672,36.5181704435702
balabac,81.07,99.0,0.0,13.23,8.49854504514849,114.26718556975072
bambous virieux,75.76,99.0,64.0,28.12,-29.67504068228918,74.61616634126764
banda aceh,83.67,100.0,20.0,6.41,4.644468287071149,89.6224639265273
bandarbeyla,80.125,100.0,12.0,14.115,6.615737245730756,55.878457620611414
barawe,80.78,74.5,0.0,12.215,1.549069050244725,44.59815656942388
baraya,70.84,85.0,36.0,2.05,2.9041035270119266,-74.80983681148003
bardiyah,59.82,100.0,0.0,9.32,32.07639005151094,25.552699880300878
barentsburg,-19.36,68.5,36.0,8.435,88.74979442324954,4.653579724548393
barrow,-12.575,81.0,68.0,10.21,87.10906474973723,-152.41823763422707
batagay-alyta,-7.85,60.5,46.0,3.18,69.67070691585113,130.37751099858787
batangafo,82.63499999999999,58.0,32.0,6.62,7.025310611537066,18.70534069667363
bathsheba,73.675,100.0,66.0,19.195,21.059155763797236,-44.508464838291275
baykit,19.535,67.5,52.0,6.595,60.79319548284113,96.24449934727636
beboto,84.30000000000001,45.5,16.0,6.859999999999999,8.250733549262009,16.833034539436795
bektemir,40.185,89.0,48.0,4.72,41.23926964981601,69.29387854574415
belmonte,82.065,100.0,68.0,12.45,-15.548043960872164,-34.2820308719827
belushya guba,-11.434999999999999,72.0,34.0,15.445,84.0466288750315,52.28109700153183
bengkulu,78.145,99.0,78.0,18.445,-18.01575147499051,94.4951496165146
beni,69.215,87.5,24.0,3.49,1.1014589132820305,29.548016639067015
beringovskiy,28.335,89.0,88.0,12.114999999999998,62.8889724543549,178.31869357133007
berlevag,-11.61,74.0,48.0,8.59,85.65088792684378,33.07751055673532
beruwala,83.245,100.0,12.0,6.6899999999999995,5.958267155686642,78.35345716398979
bethel,39.535,99.0,64.0,31.405,51.50267769624682,-169.94368983928172
bilma,71.095,22.5,0.0,10.125,17.603079792764234,12.580078711875103
biltine,74.28999999999999,21.0,0.0,9.765,15.42091777564724,22.666572521887304
bintulu,78.6,91.5,48.0,3.435,2.9734505436101273,112.92835662151526
bluff,-14.555,64.0,8.0,6.58,-80.26508685932262,168.87399244466746
bodoco,71.66499999999999,90.5,44.0,5.125,-7.801959216741508,-39.80750192682953
boende,72.025,94.0,44.0,3.37,-0.6489154798972407,22.649729726147058
bolungarvik,7.585,82.0,32.0,15.57,67.58331053067536,-28.20322343548071
bonavista,17.555,92.0,28.0,22.36,50.51869193265503,-52.702510481011316
braganca,43.37,94.5,92.0,6.475,41.98980608016879,-7.006621526234085
bredasdorp,34.480000000000004,99.0,78.0,19.15,-57.88970896383385,24.663253435318552
breytovo,23.69,91.0,68.0,11.33,58.29773563507587,37.64608787627253
bria,74.89,54.0,0.0,5.1899999999999995,6.979695372759906,22.640148207847147
broome,88.93,88.0,0.0,7.9750000000000005,-15.52483131733014,124.09747781663572
bubaque,81.685,100.0,8.0,9.53,3.8250564791404855,-22.831266654219803
bud,27.925,100.0,36.0,23.89,72.85255846450352,3.1037020473990538
buin,77.555,87.0,56.0,2.51,-6.713193530815104,155.2819680849566
buique,74.255,83.0,24.0,4.295,-8.731516032298416,-37.12568933063895
bukachacha,19.625,67.5,44.0,2.82,53.812821499241096,117.29116559295852
bur gabo,82.305,100.0,0.0,10.67,-4.454120264181796,45.84959270537044
buraydah,51.8,38.5,0.0,6.08,27.17115506017413,42.217991264284535
burica,85.005,100.0,36.0,4.855,5.623117940241002,-85.16127894439913
burnie,60.290000000000006,100.0,76.0,12.295,-41.37101383715319,144.44706370246917
burns lake,3.31,56.5,0.0,2.28,54.36878264431766,-126.02359303628685
busselton,-26.195,52.5,32.0,20.950000000000003,-72.79309675458123,88.58467181828797
butaritari,75.41499999999999,100.0,36.0,12.715,23.474248949825338,174.40492103996297
ca mau,80.4,100.0,4.0,9.25,7.505646024462948,105.39498704237928
cabo san lucas,79.39,100.0,68.0,10.355,3.7129409644253,-120.33845683142243
calvia,59.07,91.0,12.0,13.67,40.06181508177235,1.612284287404151
camocim,80.26499999999999,100.0,76.0,15.959999999999999,1.025870500727308,-41.01314015194734
cap malheureux,82.41499999999999,100.0,76.0,12.24,-16.808813680862812,55.715484673269174
cape town,43.775,100.0,64.0,27.21,-47.53286956538226,10.354458952895783
carauari,78.58500000000001,89.0,32.0,2.92,-3.7039790783624227,-66.65007154555866
caravelas,81.405,100.0,56.0,8.145,-20.32836323032815,-27.648669370872597
carnarvon,73.265,98.0,80.0,19.049999999999997,-27.162574678447278,110.01555819831788
carupano,78.62,86.0,72.0,11.495,10.643052453599068,-62.48423738429557
carutapera,80.06,99.0,76.0,17.814999999999998,3.063647166988119,-44.085124760715644
castro,46.685,94.5,92.0,19.73,-53.903689589416985,-108.71004244002381
cayenne,75.06,100.0,76.0,20.725,15.40410727516715,-41.933428757354164
chabahar,71.66999999999999,100.0,0.0,11.46,25.21897975615221,59.24116839466805
chagda,12.24,74.5,68.0,4.41,59.076180580497265,131.19730541053912
chamba,4.275,76.5,68.0,1.375,33.22103509194237,76.81153783123813
champasak,79.855,55.0,0.0,2.16,14.512125465644317,106.4973077151019
charlestown,77.75999999999999,99.0,46.0,19.07,16.877817525151627,-62.74580389760703
cherskiy,-4.075,73.5,60.0,3.1900000000000004,69.19540589193772,162.64010327094581
chimbote,78.16,100.0,76.0,9.92,-10.981381056723592,-81.80986936698342
chokurdakh,-6.895,73.5,56.0,5.045,84.75365063237868,156.02969018176753
chumikan,7.6,61.5,48.0,8.879999999999999,56.41404182754536,136.05504569820874
churapcha,2.0549999999999997,71.0,64.0,3.455,61.35036541373799,132.5591383650211
chuy,36.795,94.5,76.0,23.700000000000003,-56.52034639052757,-31.10564592282691
cidreira,51.945,99.5,42.0,21.23,-45.73378279013816,-36.09513211016284
clyde river,-11.274999999999999,74.5,24.0,6.355,72.30126471495237,-71.92233553511204
coahuayana,78.88499999999999,100.0,76.0,10.98,-2.5520112219375477,-114.72317061162188
codrington,75.125,100.0,48.0,13.715,24.15435341639811,-58.94571834809575
coffeyville,21.14,70.0,46.0,9.93,36.92938607695571,-95.62052267228833
college,7.965,79.0,48.0,2.93,65.32764345880028,-148.03195307595297
comodoro rivadavia,55.400000000000006,93.0,32.0,17.075,-48.631851945455466,-64.48219829275982
conde,80.785,89.0,72.0,6.845000000000001,-12.022234136934287,-37.70438962876938
constitucion,66.715,100.0,18.0,12.95,-31.367097786300114,-81.87708070851113
coquimbo,66.945,100.0,12.0,14.0,-30.636951807594265,-81.69868719564975
corsicana,38.67,76.0,4.0,11.23,32.145907834750474,-96.40293257714012
coxim,81.355,82.5,32.0,4.555,-18.198117692019977,-55.07847580691595
dalbandin,50.025000000000006,71.5,0.0,4.115,27.409183196095242,64.02910285436326
daro,61.92,64.5,0.0,4.395,25.05966979477472,68.04214421765536
dauphin,5.555,60.0,48.0,6.305,51.369675521907254,-100.61645607279206
dekar,85.935,29.5,0.0,8.254999999999999,-21.887625651655583,22.246325614529837
deniliquin,68.93,63.0,20.0,6.34,-35.40283248911821,144.43865123581878
denpasar,85.58500000000001,100.0,40.0,7.01,-10.941233550685368,114.58329019422422
deputatskiy,-11.245000000000001,61.0,36.0,3.2300000000000004,70.60333353791344,139.73582768843443
dhone,79.46000000000001,44.0,0.0,5.215,15.396285834677244,77.84804682385641
dicabisagan,78.07,100.0,0.0,9.55,17.760062614825443,123.45792959500551
dickinson,3.55,75.5,24.0,15.8,46.096073949588344,-103.07765131822225
diffa,78.14,21.0,0.0,9.765,15.095075894767902,12.176534060814049
dikson,-17.275,75.5,48.0,6.005,87.91192029940336,86.82183604140744
dingle,50.42,100.0,80.0,26.485,49.62798520917431,-11.33994658904632
dourbali,88.07499999999999,28.5,8.0,11.495,11.647853145879012,15.48032614334366
dubai,62.21,53.0,0.0,4.955,24.050821756267382,55.590912508204724
dubenskiy,29.415,93.0,88.0,11.205,50.868249057798494,56.288333527389625
dunedin,54.345,91.0,84.0,22.895,-49.88298056044503,172.62378981867482
duz,58.849999999999994,51.5,0.0,4.539999999999999,33.502460926564495,8.884880880358594
dzhusaly,29.265,72.5,0.0,6.1850000000000005,45.18340061627211,64.64583645310489
east london,49.7,94.0,28.0,20.155,-44.36771032025632,35.70717311830333
ekibastuz,22.875,88.5,22.0,11.82,51.62330572957893,74.83319843849131
el alto,73.495,88.5,60.0,3.4450000000000003,-4.249248959108272,-81.28730925601643
el tigre,87.35,45.0,8.0,14.475,8.534753016665562,-64.89423485756235
emerald,84.05000000000001,35.5,0.0,9.735,-24.96497486281625,144.89030096798575
enshi,44.115,94.5,92.0,2.59,30.098844938373304,110.01018810481821
erzin,18.745,69.0,44.0,4.395,48.36700277332707,96.01771134374968
espanola,2.5,60.5,36.0,5.415,46.97544283768394,-82.08628133751388
esperance,41.11,100.0,88.0,29.595,-52.80977472777653,126.77435194768248
eureka,48.205,100.0,68.0,19.43,40.76271232728885,-128.34778424155152
evensk,12.56,89.0,68.0,7.225,61.044062491081434,160.44247501406215
evora,54.95,89.5,72.0,8.77,38.49828086654679,-8.062023937002749
eyl,80.05000000000001,100.0,12.0,13.815,6.304393267943439,53.15139327762151
faanui,83.14,100.0,16.0,10.84,-8.996334092624451,-153.87008185450685
fairbanks,9.25,85.0,66.0,13.385,74.88639814599429,-143.79594271582167
faya,45.755,44.0,0.0,3.6,20.93993734297041,18.33337512496965
fevralsk,7.085,65.5,0.0,3.5549999999999997,54.30872470044582,129.8595914766555
fitchburg,6.845,69.5,32.0,11.42,42.894600533497595,-89.36316499600625
flin flon,-0.425,74.0,48.0,15.67,60.81781382113414,-101.71181109487944
formoso do araguaia,76.58500000000001,89.0,24.0,2.49,-10.337664662707212,-51.584072096366526
fort nelson,0.04000000000000001,61.5,0.0,2.4050000000000002,59.39677403752253,-123.39659127851763
fort pierce,73.19999999999999,100.0,8.0,15.2,27.56377015470457,-79.87789742320578
fria,78.09,63.5,0.0,4.83,10.376392677423226,-13.791277210545672
galle,82.125,100.0,56.0,6.075,3.2930183689258286,78.16874219902456
gamboma,75.08,92.0,56.0,4.005,-1.8956277734200881,16.144785534428905
garowe,79.91499999999999,40.0,8.0,3.885,9.784629580001365,47.63692754549922
gazli,37.5,80.0,0.0,7.859999999999999,41.25223868542952,62.762037364452
general roca,65.08000000000001,23.0,0.0,15.075,-39.37554254653494,-67.54608614050392
george town,79.69,98.0,20.0,12.8,18.34162777880124,-82.15607293982343
georgetown,80.805,100.0,78.0,12.955,-10.258059437040288,-22.08054890335231
geraldton,67.81,100.0,68.0,15.129999999999999,-33.95040650953317,86.6720028692796
gigmoto,78.77000000000001,100.0,52.0,11.5,14.810473455469065,126.54841417939781
glubokoe,26.105,91.5,34.0,3.365,50.53122136209757,82.42198008721846
goba,61.115,69.5,22.0,3.725,7.471267949805011,40.18443027588819
goderich,81.61,100.0,0.0,6.025,6.063748859270319,-16.280221409577678
gotsu,51.165,100.0,40.0,11.21,36.96297531510794,130.84952620388572
goumeron,43.065,100.0,0.0,3.3449999999999998,37.91372791892958,21.5382229843882
grand river south east,75.135,100.0,76.0,21.685000000000002,-28.21576992868534,83.03247997435005
great yarmouth,47.305,92.5,72.0,27.725,52.99718741486464,2.793419435466433
grindavik,42.015,100.0,60.0,24.244999999999997,54.576591316855854,-29.670775173215986
gua musang,80.705,59.5,0.0,2.115,4.811944888624993,102.05005207554984
gualaquiza,69.36,90.0,64.0,2.2249999999999996,-3.63322471962654,-78.19807396447773
guarapari,81.025,100.0,68.0,8.309999999999999,-25.172294594607507,-33.2797421625435
guayaramerin,78.62,87.5,16.0,2.71,-10.7742970462985,-65.55835732557891
guerrero negro,71.57499999999999,100.0,0.0,15.46,19.8827060609882,-122.62934382289896
hai phong,73.125,93.0,14.0,15.085,20.582033948946815,106.59597281605824
haibowan,26.73,74.5,0.0,6.34,42.31430079702278,106.25532650429784
haines junction,21.534999999999997,100.0,36.0,2.44,60.13176710594445,-141.41195044116915
half moon bay,56.875,100.0,68.0,12.73,33.86586104561894,-131.78901590084598
halifax,57.64,100.0,76.0,25.88,39.17168470193758,-61.30061128481488
hami,36.474999999999994,37.0,24.0,6.6899999999999995,40.8713170201944,92.42517941898632
hamilton,72.92,96.0,60.0,15.125,28.94745832544598,-68.45237592067711
harper,82.81,100.0,68.0,5.225,-3.7823341984763346,-7.129883111743624
hasaki,63.43,100.0,76.0,24.134999999999998,31.07912042852017,149.71236067024932
havelock,60.14,100.0,66.0,19.495,33.7866727946797,-74.77104374056684
hay river,-5.1850000000000005,65.5,8.0,4.1850000000000005,62.58948607656433,-118.2102482665922
hearst,-2.61,68.0,36.0,6.79,50.474597938752936,-83.44761230605434
hermanus,6.92,64.0,0.0,16.564999999999998,-70.7441628706595,6.0398471341895
high level,3.0549999999999997,65.0,0.0,3.74,57.784823626430864,-116.52193948116934
hilo,59.005,100.0,68.0,16.31,31.168867793953666,-145.40773856283712
hit,55.055,43.5,4.0,4.895,31.904503702502183,43.20541052143295
hithadhoo,82.22,100.0,68.0,21.9,-9.664016281172707,73.8597758899148
hobart,-41.385000000000005,0.0,0.0,18.11,-77.86924422896345,147.93052977043237
hofn,42.0,100.0,76.0,26.75,62.99474226573301,-11.514498126055543
holbeach,46.56,81.5,50.0,18.715,52.52034692341539,0.13414371107836587
honiara,82.32499999999999,100.0,76.0,9.5,-14.036044187371587,157.1688910947268
hovd,30.675,78.0,0.0,7.805,42.52716164003658,101.98839532737276
hsinchu,65.69999999999999,100.0,90.0,17.93,24.8473797536914,120.84957027331103
hualmay,72.36,100.0,46.0,16.775,-19.7607223297843,-94.56090600162737
husavik,-5.77,82.0,56.0,12.63,79.55119383321158,-8.820280321643537
hutchinson,14.31,78.0,46.0,12.215,38.4063413587985,-97.86104236842722
ialibu,74.96000000000001,96.5,76.0,2.06,-7.142975028199501,143.89492045257617
iberia,75.63499999999999,89.5,36.0,2.5599999999999996,-10.978699456086133,-71.1525094584381
iganga,71.50999999999999,82.0,24.0,4.5649999999999995,0.5782755860213484,33.507305446814996
ikalamavony,68.47,92.5,46.0,3.51,-21.465544636771952,46.07715063647208
illoqqortoormiut,-3.06,86.0,56.0,4.955,79.82562360863278,-16.464266803612276
ilulissat,-14.445,72.0,48.0,12.445,86.24599645765744,-39.65816186063938
indramayu,82.38,100.0,68.0,6.25,-5.270174748333702,108.9035145592286
inongo,74.86,92.0,56.0,2.93,-2.875476533262244,19.008788512486973
iqaluit,-3.5199999999999996,100.0,36.0,15.68,59.74884062003443,-69.45600874040198
iralaya,79.67,99.5,72.0,16.02,14.57569420227216,-82.91718286609019
isangel,77.335,100.0,64.0,19.875,-25.034848378833743,178.55137499873115
isetskoye,20.205,86.5,48.0,11.735,56.22697553570279,65.56777957635313
isla vista,61.625,100.0,68.0,10.245000000000001,28.963170019493205,-121.72791058730874
itaituba,78.47,83.0,36.0,3.02,-4.215126616703074,-54.67873346283504
itarema,79.36,100.0,40.0,19.215000000000003,4.598678608420883,-35.695564585773695
iwanai,30.18,90.5,14.0,3.3449999999999998,42.63192280413338,140.55777574828932
jabiru,83.3,100.0,32.0,6.24,-12.23116517427313,132.88007832178573
jalapa,68.685,93.0,52.0,3.165,13.83107280239237,-86.08529697044776
jamestown,46.7,100.0,46.0,20.75,-45.2122264457513,-13.779627138373826
jansath,56.0,90.0,0.0,5.96,29.407862794683737,77.77564744003797
jiaxing,48.825,87.5,68.0,8.21,30.787554665110818,120.67396958589518
jibuti,75.98,66.0,0.0,3.725,11.19207788718802,42.86862370907181
jiddah,58.735,63.0,0.0,3.71,21.639045331365082,36.76487409973703
jiuquan,11.649999999999999,66.5,36.0,2.8049999999999997,37.10398844481678,98.38363598912309
jos,79.61,41.0,8.0,5.07,10.015093712632563,8.638061087423353
juybar,50.97,100.0,0.0,6.16,38.075791658908315,53.017333178171725
kabanjahe,83.42,100.0,22.0,3.625,3.1944731395209374,97.24959824960297
kadykchan,-20.895,53.5,12.0,2.875,62.69304760014879,146.32810198872988
kaeo,76.445,100.0,66.0,20.18,-26.633525978033326,178.06451121390688
kaitangata,29.985,100.0,88.0,19.17,-69.57408870012067,178.80853707302242
kalmunai,83.61,100.0,32.0,4.9,6.249670132839412,87.67602263755458
kamenka,23.695,100.0,22.0,16.965,69.22613219329224,43.9728854212384
kamina,68.83500000000001,96.0,72.0,3.95,-8.698100897208121,25.445238044941817
kanniyakumari,82.96000000000001,100.0,24.0,5.85,5.353654887218269,77.20624855254516
kapaa,75.68,100.0,60.0,18.825,20.67248927049198,-179.9823393221755
karaton,31.255000000000003,81.5,22.0,8.8,47.01239124050096,54.12194636009605
karkaralinsk,19.485,87.5,20.0,10.815000000000001,50.213295954186094,75.2011286710507
kaspiyskiy,36.254999999999995,97.0,24.0,9.15,44.46268873305945,48.154226281930306
katangli,15.875,99.5,8.0,16.095,51.86272914289225,143.75523402538238
katsuura,78.58,100.0,64.0,9.98,19.39013717101436,153.85142523615923
kavaratti,77.815,100.0,0.0,12.11,13.807445006898135,65.96088885200999
kavieng,83.13999999999999,100.0,64.0,5.74,0.7272860304931612,150.51057633743625
kayes,73.69,20.5,4.0,7.305,14.516195166559228,-11.010302687174999
kendari,83.815,100.0,20.0,6.8100000000000005,-3.0617976113991148,123.23396537319206
kesabpur,68.745,89.0,0.0,4.855,23.01940727501824,88.23921080045909
khatanga,3.8500000000000005,68.0,28.0,8.76,69.89313331297649,103.62072978620927
khotyn,41.015,73.0,12.0,8.005,48.620407322062476,26.574934412383868
kidal,65.075,35.5,0.0,5.404999999999999,17.77781648439729,3.9969689494172087
kieta,82.48,100.0,48.0,4.005,-5.955806251361153,156.0144774188476
kilindoni,84.56,100.0,32.0,9.365,-7.821812242927351,40.11945417292955
killybegs,46.75,100.0,76.0,17.805,57.66311061750531,-10.004872353735266
kindu,71.47999999999999,91.5,56.0,2.39,-1.6908001182149093,25.35520490789429
kingaroy,71.87,79.5,44.0,8.915,-25.85074356422841,151.11664595091457
kisarazu,45.96,100.0,92.0,11.26,35.3296920219865,140.02873983360945
klaksvik,16.72,100.0,32.0,24.585,75.77049575258371,-4.960086700689828
kloulklubed,80.53999999999999,99.5,66.0,14.195,6.0056673609216915,134.4502451030108
kodiak,44.61,95.0,76.0,18.22,46.35246697646815,-158.6923829645413
kodinsk,19.785,72.5,48.0,8.48,61.13777062964871,98.99683140160028
komsomolskiy,-6.76,74.5,48.0,14.125,78.4565543202126,174.83819639051524
kongolo,71.025,91.5,56.0,2.565,-4.9664936797468044,26.959052494974713
kontagora,85.625,31.0,0.0,5.46,10.718057355435946,6.224509328730051
korla,40.885000000000005,42.0,56.0,4.74,40.89837868269774,85.0632484662512
krasnoselkup,15.870000000000001,84.5,72.0,12.895,64.73371073086349,82.65995989193016
kruisfontein,-31.04,44.0,32.0,18.25,-73.86096951119247,28.076511227785062
kudahuvadhoo,82.75999999999999,100.0,46.0,11.61,1.637078883983861,69.22670297587578
kumluca,58.125,100.0,24.0,5.255000000000001,36.15244356372342,30.079836635201815
kungurtug,18.445,60.0,44.0,2.16,51.1178844374937,97.93299500677165
kuusamo,7.734999999999999,72.5,8.0,5.225,65.91629589211323,28.541922209964838
kwinana,72.85,92.5,18.0,25.14,-31.80439385882613,113.94533206836121
la ronge,-1.405,74.0,48.0,16.11,64.51428046276436,-104.85554814977853
labuhan,84.18,100.0,64.0,6.87,-6.941650511261727,104.30279759157321
laela,70.60499999999999,97.0,44.0,3.445,-8.1642632606017,32.29677803720696
lagoa,51.805,100.0,72.0,24.36,45.52970055599849,-26.354847194220724
laguna,78.65,100.0,66.0,13.995,-29.852190109360514,-47.78589100404844
lakatoro,83.13,100.0,40.0,8.925,-15.45623068580052,169.77507024247154
lamu,82.22,100.0,0.0,12.379999999999999,-3.7637509948279586,42.00504855208683
lata,83.045,100.0,48.0,8.77,-8.148994394419063,166.86383086124653
lavrentiya,7.595000000000001,87.0,66.0,12.9,76.65030143639609,-170.54737886799393
le port,82.91,100.0,66.0,9.035,-18.255439371795333,53.37078348787941
lebu,65.105,100.0,26.0,13.274999999999999,-34.36779386441349,-78.43935079234701
leh,-14.815000000000001,100.0,0.0,2.55,34.0346520897282,79.53335686865745
lencois paulista,70.91499999999999,91.5,46.0,4.6850000000000005,-22.550301475064813,-48.81065886236118
leningradskiy,0.565,82.5,64.0,9.945,73.29749654281542,177.45400525789506
lensk,18.56,70.0,68.0,5.78,59.77354877300604,114.32228962859375
lhokseumawe,83.9,96.0,8.0,4.475,5.5734271839921234,97.37812873638529
linxia,22.02,67.0,68.0,4.890000000000001,33.21322805583871,102.32101300020446
lisakovsk,27.155,89.5,78.0,12.27,51.49348569970704,63.14340622336394
lobva,19.46,76.0,78.0,5.74,59.041368301612124,60.32087668109065
lockport,15.655000000000001,100.0,56.0,13.465,43.484452437494156,-78.8854388182734
lompoc,69.97,100.0,66.0,11.195,23.38012934106608,-133.6849595487813
longyearbyen,-13.49,74.5,48.0,8.845,87.22181969206255,24.603848000989103
lorengau,81.015,100.0,46.0,19.29,11.13193391777321,148.5467601934413
los llanos de aridane,66.06,100.0,12.0,13.335,28.740591201818873,-24.52165387272322
louisbourg,32.015,100.0,34.0,25.355,43.91270042884622,-59.096935943503
luanda,81.765,100.0,80.0,5.95,-9.797592647397892,8.721117922342671
luderitz,74.07499999999999,100.0,88.0,11.79,-31.303311321132853,6.797754376946358
lugovoy,18.83,79.5,68.0,9.22,60.142952231207914,65.96652534817545
lunen,46.44,92.0,92.0,19.37,51.62529668743926,7.478915253882519
lyskovo,23.615000000000002,85.5,76.0,10.21,56.126859758830875,45.36315247904193
maarianhamina,29.31,100.0,72.0,17.205,61.18217736402477,19.51504195289246
maceio,81.565,100.0,76.0,13.219999999999999,-15.247032707987728,-29.45756487269867
mackay,78.67,100.0,56.0,18.825,-21.49577663300903,150.23103475455736
mago,13.485,56.5,8.0,5.07,52.510919153313694,139.13859129260953
mahadday weyne,80.445,99.0,8.0,16.59,3.1549778733784706,47.20091734965655
mahajanga,81.16999999999999,100.0,44.0,6.6899999999999995,-15.53374557351654,45.117014508929174
mahebourg,80.175,100.0,60.0,21.73,-24.35675990691648,61.293876968341095
majitha,55.010000000000005,92.0,66.0,4.234999999999999,31.66192529904771,74.98367648798637
makakilo city,79.7,99.0,88.0,23.51,8.419476731450814,-163.9434425231504
malinyi,74.185,92.5,44.0,2.19,-9.196774935264997,36.18714224361861
maltahohe,74.925,44.0,8.0,3.725,-25.354108479818606,16.168853019346813
mana,78.875,98.0,30.0,19.125,9.328031074143595,-52.57684940177123
manadhoo,83.21000000000001,100.0,8.0,7.595,6.429223860888257,74.87616104366259
manado,80.77000000000001,100.0,56.0,11.82,2.9204400654387115,123.81895544850738
mananara,77.78999999999999,100.0,88.0,5.08,-16.511734701979805,49.98407548949581
mananjary,80.345,100.0,64.0,8.99,-21.34451711241023,49.26222172019999
mandalgovi,27.615000000000002,57.5,0.0,6.640000000000001,45.69559138856721,104.36439454002351
mandan,1.335,76.0,36.0,14.24,46.55901062289314,-101.74360517469627
mandera,85.355,35.0,0.0,6.300000000000001,4.051028035425418,41.95692596008138
maniitsoq,6.195,71.0,48.0,1.36,65.95144852507309,-52.83124131050896
maningrida,84.185,100.0,36.0,5.895,-8.945270703360194,133.32993240324748
mar del plata,32.644999999999996,94.0,88.0,21.105,-65.30735129102919,-32.30914431091918
marawi,63.0,20.5,0.0,10.695,19.77888815796399,26.93047449690127
marcona,70.33,100.0,70.0,16.755000000000003,-21.530295254597476,-83.42848773164978
mareeba,84.88,100.0,28.0,8.265,-15.591770293010356,140.9074376429217
margate,74.265,100.0,28.0,18.67,-34.02577500053219,33.286311686973676
markala,75.58,31.0,0.0,6.21,13.293732875888352,-5.59516216870162
marquette,3.67,57.5,40.0,7.345,46.545534396216794,-88.93406862391281
marsh harbour,71.18,100.0,56.0,15.335,29.586949184622924,-72.43386424535639
mastic,28.869999999999997,100.0,8.0,16.35,40.87142465175805,-72.81932370373042
matamoros,72.875,100.0,88.0,19.15,24.227925576563862,-95.54729788470415
mataura,58.95,98.5,40.0,24.805,-43.177962473793954,-149.96636614979582
mecca,56.614999999999995,19.0,0.0,7.5649999999999995,21.327396073572743,40.97372225425872
mehamn,16.375,100.0,46.0,27.604999999999997,74.71526922052846,28.22116583481423
merauke,82.695,100.0,64.0,7.4,-9.589075432258412,139.43026641659077
meulaboh,82.02,100.0,68.0,8.254999999999999,-1.082618287879427,89.08633775058814
meyungs,80.71000000000001,99.0,56.0,15.254999999999999,9.39637609589164,133.11709768944576
mikuni,49.18,100.0,52.0,14.795,37.16114260387799,135.59186251467577
milton,58.57,87.0,8.0,12.96,-46.624046128244174,170.48408508654342
minab,52.239999999999995,69.0,0.0,3.005,26.982129679105086,57.59068594198041
mirabad,56.09,62.5,0.0,4.574999999999999,29.938474031505322,61.99808183095061
mocambique,81.54499999999999,100.0,64.0,9.665,-14.635454691844032,42.27549815230489
moerai,81.52,100.0,64.0,7.215,-20.313107265693773,-152.40239892988097
mongo,83.875,28.0,0.0,7.91,12.46165456570182,19.0791073158517
morgantown,20.335,59.0,56.0,6.465,39.72046108340339,-79.99878393712004
moron,77.705,100.0,4.0,11.32,23.19764191152464,-78.12761907517715
mount isa,86.655,38.0,22.0,10.29,-19.44303815660271,140.603323926168
muisne,79.98500000000001,100.0,16.0,7.805,2.9981418768352768,-82.83091211338945
muros,56.870000000000005,98.0,68.0,25.075000000000003,42.17000288620153,-13.887962310027262
muzhappilangad,78.695,63.5,8.0,3.3899999999999997,11.905908407270246,75.60150998536133
muzhi,3.5199999999999996,74.5,48.0,10.435,64.54806104755664,64.47907205578872
myrtle beach,54.46,100.0,22.0,14.36,32.76398570564142,-78.32885556273861
mys shmidta,13.145,84.0,36.0,11.875,70.61783157923082,-176.9989977437243
nabire,61.93,100.0,88.0,1.865,-3.8420000614187586,137.23280212356184
nahrin,36.54,88.0,44.0,2.55,36.06838411928996,69.16381287079724
namibe,78.9,100.0,40.0,5.68,-13.343589709892157,10.976790423440292
nanortalik,40.114999999999995,100.0,60.0,21.79,52.41343946585849,-37.10337087403343
nantucket,48.385000000000005,100.0,44.0,21.205,38.25705291683809,-69.72167589084822
narsaq,-19.65,75.0,48.0,7.29,88.72394500540616,-59.53204261090305
natal,81.35,100.0,40.0,4.375,-3.33199168995597,-27.840376439016893
necochea,44.885,93.5,88.0,17.134999999999998,-53.03444020338871,-52.07050867787386
nesna,31.384999999999998,100.0,0.0,11.375,66.54723881121063,12.741741101281804
new norfolk,38.480000000000004,100.0,88.0,17.325,-57.96572484528194,133.2690919228769
neyshabur,43.115,79.5,10.0,4.8,35.05885838289042,59.07109951028667
nguiu,85.315,100.0,24.0,9.795,-11.977662832985231,129.04143976352321
nikolskoye,50.31999999999999,100.0,40.0,28.175,38.90022980369946,167.96522146849446
nishihara,76.845,100.0,22.0,14.004999999999999,20.86768912012164,134.3788300095663
niteroi,79.785,100.0,24.0,7.795,-23.396951273108954,-43.14879819823912
nizhneyansk,1.165,84.0,52.0,11.665,71.8248126566611,134.12425803198443
nome,25.6,92.0,68.0,16.645,67.15294655696493,-167.08625587036178
norman wells,-5.335,69.0,34.0,7.255,66.36111640525394,-121.27480245053678
north adams,19.82,55.0,46.0,4.73,42.75017509239433,-73.17211819447695
north platte,6.705,79.0,46.0,8.725,40.57149680608546,-100.75680079566254
northam,83.76,25.5,40.0,15.355,-26.88778397811725,121.71628020931388
nouadhibou,67.625,100.0,0.0,17.134999999999998,23.516202708813083,-21.324733443650388
nova vodolaha,37.935,92.0,64.0,13.655000000000001,49.56785237821691,35.86719411248194
novo aripuana,79.33000000000001,87.5,24.0,2.62,-4.845088854147264,-60.62862743011901
nowy dwor mazowiecki,45.735,92.0,78.0,14.754999999999999,52.380978377927136,20.605104064376974
nuevo progreso,73.485,100.0,92.0,19.16,23.298938562975735,-95.81775459635018
nurota,36.165,78.5,0.0,6.73,41.91747767114995,64.70980131663907
nushki,39.39,82.0,0.0,3.37,29.093706563025748,66.0704563968016
nyirabrany,47.485,85.0,66.0,14.45,47.568893123886056,22.01180740125409
okhotsk,11.72,87.0,0.0,8.98,58.19603778157639,144.13833110408342
okulovka,24.545,87.5,68.0,8.375,58.60610448346429,32.89127021542612
ola,13.809999999999999,99.0,36.0,15.315000000000001,57.56226153222147,151.4423709554714
olafsvik,3.925,84.0,8.0,7.805,68.05674962781916,-30.44599913789088
olean,14.47,53.5,56.0,6.465,41.818684751221326,-78.02143164930108
omboue,83.21000000000001,100.0,56.0,8.175,-3.4574557821889726,6.033978942099708
oranjemund,71.03,100.0,46.0,9.25,-32.576006079937514,11.88294037326483
ornskoldsvik,12.899999999999999,72.5,20.0,3.6,64.81407471397858,18.485801690911217
ostrovnoy,24.49,100.0,32.0,17.66,68.17092295222889,41.36219051529221
ouadda,72.08,31.0,0.0,6.925000000000001,8.706068743040134,23.96792635782191
ozinki,33.1,92.5,80.0,14.17,51.455503254859565,49.60963547123626
paamiut,35.69,100.0,80.0,14.135000000000002,60.03373656743125,-49.53390454077177
pacific grove,54.474999999999994,100.0,76.0,14.379999999999999,34.389925249058265,-125.33601481984923
paciran,80.815,100.0,64.0,5.805,-6.644370480076461,112.23686963989292
padang,84.33,100.0,32.0,6.13,-2.053113431317513,100.1460041459357
palomares,77.28999999999999,70.5,72.0,9.93,17.28028392629149,-95.02839220262655
pangnirtung,3.58,90.0,48.0,15.335,61.95227358394999,-63.161991588964256
panorama,80.1,75.5,10.0,5.805,-20.99963824025015,-52.516695421197824
parana,72.25,87.0,52.0,7.63,-32.27026282181792,-60.80852531945179
pareora,59.505,91.5,0.0,8.524999999999999,-45.4485909218421,172.25738857176447
parkes,70.635,56.0,0.0,8.49,-32.30654294551576,147.51256424951993
pedernales,78.245,100.0,36.0,20.165,17.597697661599142,-71.58003662296301
peniche,58.2,99.0,80.0,24.57,39.95833769723495,-13.126275499547887
petaling jaya,82.2,91.5,20.0,4.5649999999999995,3.1370588262367107,101.61885370747837
petropavlovsk-kamchatskiy,28.66,100.0,78.0,22.895,51.942986573276016,162.49537922143998
petrovskaya,38.56,83.0,24.0,10.77,45.43354113285744,38.04303406803689
pevek,-14.78,75.0,56.0,9.15,88.82741736572143,171.3330508799632
phan rang,80.62,99.0,8.0,12.059999999999999,8.035005230015557,111.47636551834051
phuntsholing,47.04,92.0,36.0,1.48,26.762221316545237,89.41600064003461
piacabucu,81.555,100.0,80.0,12.225000000000001,-16.520538004215723,-29.767566539948632
pierre,4.045,76.0,34.0,11.21,44.62082726969365,-99.69070751159916
pirot,38.535,71.5,0.0,2.74,43.246376619400564,22.707932652419572
pisco,73.205,100.0,66.0,9.26,-27.334902024376724,-100.39089491958691
piterka,33.19,91.0,40.0,13.625,50.47029692409862,47.6257078984988
plettenberg bay,49.605000000000004,96.0,60.0,25.225,-45.208585938677864,24.097265506801563
pochutla,82.875,100.0,0.0,6.345000000000001,12.806615384674913,-95.53091852318765
pokhara,1.545,56.5,0.0,5.65,30.286989634719248,84.20819874307693
polyarnyy,23.775,100.0,32.0,24.705,69.84729754358241,34.24515157352121
ponta delgada,65.10499999999999,100.0,58.0,12.399999999999999,32.35968434177781,-26.984555756504506
ponta do sol,70.03999999999999,100.0,0.0,19.04,20.268790590573246,-27.55822698108713
port alfred,-41.875,0.0,20.0,15.8,-88.66822179553598,57.74688122439264
port blair,80.66,100.0,0.0,6.845,13.416850664042101,87.4972873615933
port elizabeth,37.150000000000006,99.0,80.0,27.545,-53.30987688631226,29.44813467865913
port hardy,44.715,100.0,76.0,14.485,44.95115000523964,-134.42632242476864
port hedland,86.85499999999999,20.5,12.0,13.335,-25.929082047095193,122.18066124395091
port keats,87.195,97.0,12.0,11.05,-13.733937602463612,128.0607953584934
port lincoln,57.515,100.0,64.0,19.855,-40.25428737893859,130.2450307476612
port macquarie,71.27,98.0,52.0,17.479999999999997,-36.800801457435355,161.38170155515854
porto novo,71.92500000000001,100.0,0.0,21.05,15.932781010511547,-29.937999434411154
posse,72.78,90.0,44.0,3.6550000000000002,-14.863218067509152,-45.920498719649316
poum,79.91499999999999,99.5,76.0,18.03,-18.941592493846017,157.62831923316253
praya,85.67500000000001,100.0,36.0,9.485,-11.192683630142355,116.62974012450377
presidencia roque saenz pena,75.49,92.5,60.0,7.529999999999999,-25.784968482391776,-62.31386116301853
prince rupert,42.205,100.0,64.0,13.43,49.4591735178019,-133.08826650377264
princeton,10.055,61.0,0.0,2.695,49.68955095972012,-120.59339721298096
progreso,77.3,97.0,0.0,15.805,22.56709665436739,-89.60908520815984
providencia,59.835,49.0,32.0,4.97,29.320185083334067,-112.46145962904993
provideniya,37.615,98.0,64.0,34.370000000000005,53.171431529777095,-179.4308987305157
pucallpa,76.095,90.5,44.0,2.39,-9.659831124058599,-73.70909435306491
puerto ayora,80.315,100.0,60.0,4.63,-0.7027597518594035,-101.38123675020334
puerto narino,76.465,91.5,40.0,3.85,-3.784702142416023,-71.76417689654505
punta arenas,22.875,92.0,88.0,14.54,-72.5211810573614,-115.99030745709655
qaanaaq,-13.48,73.5,52.0,10.649999999999999,85.06086587132941,-67.99235479752198
qandahar,47.555,88.5,0.0,4.279999999999999,31.41779862392106,65.21593900476901
qasigiannguit,5.699999999999999,67.0,8.0,16.455,68.21710087815921,-48.64283434791966
quang ngai,79.91,98.0,0.0,14.295,15.715382203327295,111.48535195914218
quatre cocos,81.435,100.0,68.0,18.15,-17.621975771764184,64.05898419639848
rafaela,75.91999999999999,83.5,56.0,7.135,-29.835799362636813,-61.375501770525645
rakkestad,34.705,89.0,66.0,5.885,59.47982991446261,11.44911834035966
rapid valley,5.9,73.5,0.0,14.17,44.77907916417104,-102.26610902072531
ratnagiri,77.58,100.0,0.0,12.45,16.419625008527348,70.14109865366768
rehoboth,73.035,55.0,16.0,2.785,-23.465736529519987,16.00813526676228
ribeira grande,65.72,100.0,34.0,10.445,31.43927752866678,-29.93759479111972
rikitea,64.685,97.0,72.0,22.44,-38.50767829846844,-135.32722737663798
rio grande,56.975,96.5,32.0,15.594999999999999,-42.90794839408788,-39.811304045001464
rivadavia,70.62,47.0,0.0,5.345,-33.75169884561131,-68.57137564990552
rizhao,44.835,95.0,48.0,10.32,34.87067471259951,120.43617467326226
roald,29.439999999999998,100.0,44.0,24.18,71.34851372815663,0.18793218959285696
robertsport,83.005,100.0,32.0,5.390000000000001,3.26478420614319,-14.259094213910032
roebourne,85.67,27.0,36.0,6.575,-21.934539833251236,118.21995761417492
rovinj,52.435,88.0,8.0,14.335,44.76536799174718,13.290982309111456
russell,72.755,100.0,88.0,15.29,-30.601716347014758,178.28780944308454
rydultowy,44.849999999999994,81.5,64.0,11.64,50.06558653629665,18.466610639767794
sabang,82.9,100.0,0.0,6.5649999999999995,6.990862115430133,90.64880439869648
sachin,73.67500000000001,98.0,0.0,10.155000000000001,21.083073857045946,72.8706969312313
saint anthony,20.66,100.0,80.0,21.295,55.718631887508536,-57.0032337199238
saint-augustin,3.115,67.5,32.0,9.530000000000001,51.19236235336098,-60.752538131264544
saint-georges,80.61,99.0,72.0,18.095,4.3213978403097,-49.355174527083136
saint-joseph,75.43,99.0,78.0,15.58,-30.008252721260384,54.22426648495653
saint-philippe,33.63,98.0,76.0,20.38,-64.22977814662211,76.79214902820121
saint-pierre,56.94,100.0,88.0,24.75,39.53147084496101,-53.99157345895051
sal rei,71.595,98.5,0.0,20.61,15.79287952996404,-22.39500164073766
salalah,71.38499999999999,37.0,0.0,8.575,19.94964961562627,55.615620954471666
saldanha,50.935,100.0,28.0,24.96,-41.71610625796038,-2.2977381437110864
saleaula,80.99000000000001,100.0,76.0,11.629999999999999,0.03198380897875097,-172.68747728693202
salinas,80.52000000000001,100.0,8.0,6.83,-0.9005685606972236,-84.68635578951137
salinopolis,80.45,98.0,64.0,17.525,3.228374987715142,-46.0150371258529
salym,16.869999999999997,88.0,76.0,13.465,61.46946442713187,70.85334929481377
san benito,54.01,81.5,88.0,11.665,26.223544769737956,-97.56627682716388
san carlos,83.145,48.0,8.0,3.67,17.649748197589574,-90.5874518094324
san juan,75.77000000000001,100.0,40.0,13.69,24.307024055748826,-65.45915933842483
san rafael,74.7,35.0,0.0,6.8,-34.51656906753208,-67.37022737131944
santa maria,68.805,99.0,0.0,21.285,18.89870238711127,-22.744174351896845
santa marta,79.11500000000001,95.0,0.0,22.630000000000003,13.79287453354712,-75.47333856779431
sao filipe,80.63,100.0,0.0,15.27,4.904360084182642,-27.03506923521749
sao gabriel da cachoeira,75.02,86.5,28.0,2.015,0.5432999372302163,-65.99803105501532
sargatskoye,21.355,88.0,68.0,14.075,55.61233757099194,73.33247687755701
saskylakh,-15.379999999999999,74.5,56.0,4.3149999999999995,87.37213068846475,118.14840932481894
satitoa,82.755,100.0,56.0,12.57,-14.017569012975954,-164.5006802056625
sayalgudi,82.72,93.5,0.0,10.895,9.036009318950818,78.48609285607898
sechura,79.72,100.0,60.0,9.004999999999999,-7.496414597138283,-84.2572305139093
semey,21.04,84.5,8.0,5.29,49.11055338837224,78.66225706107906
semnan,42.795,61.5,0.0,4.105,35.575108224168616,53.23827071937032
senanga,72.95,75.0,28.0,4.6850000000000005,-15.914835443675898,23.715481604804722
sentyabrskiy,52.97,100.0,56.0,27.84,37.1922455890014,157.3747103136841
sept-iles,-8.045,73.0,56.0,11.555,56.80646100989645,-67.66914196016337
sergeyevka,27.020000000000003,89.0,76.0,16.095,53.76433921561994,67.06806402270192
serravalle,49.71,80.0,8.0,11.165,43.88037748619189,12.569911628640597
severo-kurilsk,28.525,100.0,34.0,26.005,49.86215976994046,158.27048852552127
shadegan,61.66,57.0,0.0,3.565,30.72727188338456,49.016137948236434
shar,21.89,86.0,10.0,7.07,49.31614677370683,80.13491962919505
shelburne,47.915,100.0,44.0,26.375,40.14277113893786,-64.45470198672825
sheregesh,24.15,75.5,48.0,3.165,52.99229307620283,88.75884325955866
simplicio mendes,73.345,91.0,46.0,3.665,-7.8172646464498285,-41.79902624466686
sinjah,78.17,21.5,0.0,11.54,13.091918000682185,34.13953559928271
sinjar,46.540000000000006,90.0,40.0,6.635,36.32121024809143,42.064412456926675
sitka,29.42,100.0,0.0,9.575,58.411144013368784,-137.02572629638254
skaudvile,39.96,94.0,92.0,14.085,55.331236551125755,22.63481733503704
skibbereen,52.74,99.0,74.0,31.695,47.60974446498619,-9.915689165012509
skovorodino,15.035,64.0,0.0,3.3449999999999998,53.9842282298232,124.02632560411371
slave lake,4.109999999999999,62.0,0.0,5.19,56.39027152382525,-113.94939207421707
smithers,2.3150000000000004,61.0,0.0,1.83,55.50105691585273,-127.74137414236206
smoky lake,-2.3899999999999997,68.0,4.0,10.465,54.08571528997757,-112.29181134357155
soavinandriana,64.58000000000001,94.0,68.0,3.5,-19.21141017854518,46.79805013175451
sobolevo,20.435000000000002,100.0,66.0,22.335,55.678353590183434,152.97768726831362
socorro,55.5,32.5,0.0,8.385,31.773807548305044,-105.97377147809509
sokol,18.23,87.5,12.0,7.765000000000001,47.120864763531216,143.16915436838093
sola,82.41999999999999,93.5,56.0,7.93,-13.607553370544977,167.34399925017868
solnechnyy,-21.655,46.5,8.0,2.17,61.511101285281484,140.04336813217145
sompeta,80.21000000000001,100.0,0.0,8.23,17.00719976436079,86.29375870861105
sonoita,58.665000000000006,52.0,8.0,3.84,31.88647024313127,-112.51214228441401
sorland,28.555,100.0,40.0,22.96,73.33659545372825,10.014880065163169
sorong,81.55,100.0,36.0,4.16,-0.8252743237044342,130.97524826024687
sorrento,57.394999999999996,97.0,0.0,9.08,39.49311112846192,14.24400202359817
souillac,66.975,98.0,76.0,16.085,-37.74719437851875,65.45171573780294
storsteinnes,12.21,75.0,64.0,2.37,68.91895797069981,19.22685190142161
strezhevoy,22.085,74.0,78.0,8.085,60.01339025024788,77.06732763635307
suez,51.265,82.0,0.0,5.515,29.39654541587342,33.188949319546566
sungaipenuh,77.71000000000001,93.0,72.0,3.1550000000000002,-1.8130132429072603,102.34699344494226
sur,74.63,100.0,0.0,8.985,20.97704568926858,61.549215895946304
tabou,82.64,100.0,64.0,5.6850000000000005,-3.599672506157063,-4.360338559006777
tacoronte,63.335,100.0,64.0,13.78,30.444618932457928,-16.166045929449638
talara,79.245,100.0,66.0,4.27,-4.2255709323023325,-83.51804966210912
talnakh,1.955,78.0,64.0,12.440000000000001,73.46531100086628,93.2245666872825
taltal,69.25,100.0,40.0,10.435,-24.886753334053296,-71.1654370486688
taolanaro,39.84,93.0,80.0,25.645,-54.270411800237625,52.74541556028845
taoudenni,64.125,23.5,0.0,7.185,20.974087672427174,-7.026904856276616
tarpon springs,61.33,100.0,12.0,16.14,28.298155367868404,-83.78179236591791
tasiilaq,-26.950000000000003,30.0,24.0,12.885000000000002,71.04262801297418,-43.11048792295773
te anau,63.055,90.5,92.0,22.795,-44.511153982489674,160.2606469354257
tecoanapa,82.94,100.0,0.0,10.555,12.041995110230488,-99.99454564476821
tellin,43.95,95.0,92.0,18.380000000000003,50.08854304338007,5.240169985543162
tesanj,48.49,58.0,8.0,4.555,44.58573599196666,17.93068088353411
tezu,34.93,81.5,88.0,1.36,28.94582518975473,96.08686966778123
thetford mines,11.105,67.0,48.0,4.895,46.20304871653994,-71.18435886737505
thinadhoo,82.33500000000001,100.0,80.0,9.025,0.12251749263876377,73.10210430857603
thompson,-4.76,71.5,44.0,11.355,70.56810256159676,-96.96557432412365
tiarei,82.35,100.0,48.0,9.8,-11.502768336023635,-146.60428390327723
tibacuy,88.1,53.5,44.0,6.675000000000001,4.4102032161879094,-72.26239710021613
tigil,9.385,77.5,68.0,4.675000000000001,56.90006467422023,157.59224950589174
tiksi,0.54,83.0,68.0,6.24,70.87518228223888,131.51022184607046
tilichiki,33.19,97.0,80.0,23.955,59.00079593620035,168.00282332332296
timizart,60.675,93.0,0.0,8.42,36.949443515362844,4.530567817533807
timra,19.92,72.5,76.0,5.165,63.05408724423984,16.903662462245933
tiznit,55.875,78.0,0.0,4.5649999999999995,27.59925512597256,-9.340285370945026
tokur,7.109999999999999,60.0,4.0,2.83,55.133805020685315,132.905127796131
torbay,65.695,96.0,50.0,21.674999999999997,35.257030018592346,-44.87416038219459
tra vinh,80.225,100.0,0.0,10.09,8.69254900921446,107.32745543276224
trelew,68.905,25.5,0.0,11.934999999999999,-42.86219142278842,-65.58940128446793
tromso,29.52,100.0,68.0,14.71,70.13433396111736,18.861467190746225
tuatapere,42.36,93.0,80.0,23.1,-57.43019763141297,156.7230404517183
tucuman,66.075,91.0,0.0,3.1550000000000002,-26.31881975218836,-65.22574810050128
tuktoyaktuk,4.414999999999999,80.0,68.0,16.935000000000002,76.58841215346862,-126.53718273891823
tumannyy,-13.085,73.0,40.0,9.64,85.10389849172157,38.78436536924539
tura,14.72,84.0,76.0,11.855,65.39640694647386,102.69415198945427
twentynine palms,52.6,56.0,4.0,3.49,33.97129445663256,-115.57075425464727
udachnyy,11.425,68.0,56.0,4.62,66.18207279640598,114.23151696514714
ugoofaaru,81.225,100.0,46.0,10.825,6.092154853631584,62.90450048921335
ukiah,52.345,100.0,68.0,14.530000000000001,36.72314065941271,-127.41710342160388
umm kaddadah,69.775,17.5,0.0,9.765,14.94119485470543,28.000571509655913
umzimvubu,45.35,94.0,66.0,23.03,-48.26526958801436,42.95789964350524
upata,78.15,65.0,52.0,5.39,7.8221803549758135,-62.07367757072507
upernavik,-8.06,75.0,64.0,4.5,82.2276356678029,-56.55488133046468
ushuaia,-21.42,39.5,0.0,2.05,-82.33055427610647,-62.33307726286671
ust-ilimsk,22.66,67.5,40.0,5.535,58.805188762016996,102.0397676171765
uyar,19.685,81.5,32.0,5.125,55.848293965298666,94.52957652568352
vaini,74.27,100.0,84.0,19.04,-28.219521254032095,-175.4969872654042
vaitupu,80.455,100.0,80.0,12.12,1.3677482012198396,-173.53687060324324
valparaiso,63.565,100.0,0.0,18.835,-32.78118555238397,-75.42873958768939
vanimo,82.22,100.0,72.0,11.44,-1.7790539522550688,141.60751672679146
vao,74.74,98.0,80.0,19.775,-29.139335404000263,166.76113996613736
vardo,27.565,100.0,60.0,21.619999999999997,71.83978262031033,31.528871611005087
verkhoyansk,-13.83,60.0,24.0,2.3,65.79240171716177,133.38952105480257
vernon,21.759999999999998,59.0,12.0,5.29,41.71796973024237,-72.4556061747624
vestmannaeyjar,45.425,100.0,72.0,26.93,56.6449767984611,-18.43136257437817
viamao,77.345,98.5,36.0,17.439999999999998,-30.323851816810816,-51.08665663541899
victoria,81.445,100.0,64.0,9.56,-8.92728555566822,59.594116855696996
vila franca do campo,53.875,100.0,66.0,24.965,46.14782118801077,-19.670674103323876
villa carlos paz,76.74000000000001,64.5,20.0,9.035,-30.68382151191353,-65.61829202840052
villazon,43.254999999999995,47.5,8.0,2.9850000000000003,-22.634100821316537,-66.04812106677497
voh,78.71000000000001,97.5,80.0,10.77,-23.308481487993276,162.5362052416466
wahiawa,64.565,100.0,32.0,16.9,26.119728993280305,-156.68969434108203
waingapu,87.305,96.0,0.0,8.77,-13.61309184763212,117.33465186738334
wakkanai,33.585,100.0,34.0,11.99,44.832629185363714,140.63001186171766
wanning,78.445,95.0,0.0,13.065000000000001,18.251119101140148,112.22109137292352
waslala,68.685,77.5,52.0,2.9850000000000003,13.31316786062844,-85.57947866870421
waw,74.82,39.0,0.0,6.98,8.10872604257007,27.52743012127263
xai-xai,79.745,100.0,48.0,13.635,-26.69659106803381,35.676277610098765
xichang,44.595,44.5,56.0,3.38,27.70262166595076,101.37923721792492
yaan,13.73,58.0,28.0,2.435,32.11472450782948,98.79481652049782
yakovlevo,34.09,92.0,88.0,13.68,50.919056438590275,36.305720285708816
ye,78.1,62.5,0.0,2.16,15.370099494071908,98.21194957252453
yellowknife,-2.425,92.5,48.0,12.940000000000001,75.12909072298933,-103.49499052459701
yenagoa,78.94999999999999,89.5,44.0,5.29,4.992229032235727,6.556838470248664
yerazgavors,23.61,80.5,40.0,2.975,40.764671190944256,43.42308000299346
yertsevo,13.870000000000001,86.0,76.0,10.265,60.72499460276421,39.93732167550209
yondo,78.315,89.0,36.0,2.15,7.0846999033134495,-73.93992935614814
yulara,79.91499999999999,26.0,0.0,10.93,-26.29419871442751,130.24350409310978
zabaykalsk,28.369999999999997,42.5,10.0,8.66,47.9848174298962,116.32519242797304
zhezkazgan,23.545,88.5,24.0,7.695,47.50103220141335,68.68872579458267
zyryanka,-1.635,65.0,64.0,3.565,65.58483790795205,150.55795895311826
